[
  { "prefix": "A", "city": "Augsburg", "land": "Bavière", "lat": 48.3715, "lon": 10.8985 },
  { "prefix": "AA", "city": "Aalen", "land": "Bade-Wurtemberg", "lat": 48.837, "lon": 10.093 },
  { "prefix": "AB", "city": "Aschaffenburg", "land": "Bavière", "lat": 49.9776, "lon": 9.1521 },
  { "prefix": "AC", "city": "Aix-la-Chapelle", "land": "Rhénanie-du-Nord-Westphalie", "lat": 50.7753, "lon": 6.0839 },
  { "prefix": "AE", "city": "Aue", "land": "Saxe", "lat": 50.5881, "lon": 12.6975 },
  { "prefix": "AH", "city": "Ahaus", "land": "Rhénanie-du-Nord-Westphalie", "lat": 52.0755, "lon": 7.0131 },
  { "prefix": "AIC", "city": "Aichach-Friedberg", "land": "Bavière", "lat": 48.4583, "lon": 11.1433 },
  { "prefix": "AK", "city": "Altenkirchen", "land": "Rhénanie-Palatinat", "lat": 50.6873, "lon": 7.6456 },
  { "prefix": "AM", "city": "Amberg", "land": "Bavière", "lat": 49.4427, "lon": 11.863 },
  { "prefix": "AN", "city": "Ansbach", "land": "Bavière", "lat": 49.3045, "lon": 10.5931 },
  { "prefix": "ANA", "city": "Annaberg-Buchholz", "land": "Saxe", "lat": 50.5795, "lon": 13.0031 },
  { "prefix": "ANG", "city": "Angermünde", "land": "Brandebourg", "lat": 53.0147, "lon": 13.9931 },
  { "prefix": "ANK", "city": "Anklam", "land": "Mecklembourg-Poméranie-Occidentale", "lat": 53.8574, "lon": 13.6981 },
  { "prefix": "AÖ", "city": "Altötting", "land": "Bavière", "lat": 48.2317, "lon": 12.6766 },
  { "prefix": "AP", "city": "Apolda", "land": "Thuringe", "lat": 51.0222, "lon": 11.5147 },
  { "prefix": "ARN", "city": "Arnstadt", "land": "Thuringe", "lat": 50.8346, "lon": 10.9465 },
  { "prefix": "ASL", "city": "Aschersleben", "land": "Saxe-Anhalt", "lat": 51.7563, "lon": 11.4576 },
  { "prefix": "ASZ", "city": "Aue-Schwarzenberg", "land": "Saxe", "lat": 50.5836, "lon": 12.7198 },
  { "prefix": "AT", "city": "Altenburg", "land": "Thuringe", "lat": 50.9878, "lon": 12.4365 },
  { "prefix": "AUR", "city": "Aurich", "land": "Basse-Saxe", "lat": 53.4696, "lon": 7.4826 },
  { "prefix": "AW", "city": "Ahrweiler", "land": "Rhénanie-Palatinat", "lat": 50.5446, "lon": 7.1152 },
  { "prefix": "AZ", "city": "Alzey", "land": "Rhénanie-Palatinat", "lat": 49.7471, "lon": 8.1178 },
  { "prefix": "B", "city": "Berlin", "land": "Berlin", "lat": 52.52, "lon": 13.405 },
  { "prefix": "BA", "city": "Bamberg", "land": "Bavière", "lat": 49.8917, "lon": 10.8917 },
  { "prefix": "BAD", "city": "Baden-Baden", "land": "Bade-Wurtemberg", "lat": 48.7617, "lon": 8.2398 },
  { "prefix": "BAR", "city": "Barnim", "land": "Brandebourg", "lat": 52.8057, "lon": 13.5696 },
  { "prefix": "BB", "city": "Böblingen", "land": "Bade-Wurtemberg", "lat": 48.6878, "lon": 9.0089 },
  { "prefix": "BBG", "city": "Bernburg", "land": "Saxe-Anhalt", "lat": 51.7948, "lon": 11.7421 },
  { "prefix": "BC", "city": "Biberach", "land": "Bade-Wurtemberg", "lat": 48.0951, "lon": 9.7901 },
  { "prefix": "BGL", "city": "Berchtesgadener Land", "land": "Bavière", "lat": 47.7238, "lon": 12.9217 },
  { "prefix": "BI", "city": "Bielefeld", "land": "Rhénanie-du-Nord-Westphalie", "lat": 52.0302, "lon": 8.5325 },
  { "prefix": "BID", "city": "Biedenkopf", "land": "Hesse", "lat": 50.9129, "lon": 8.5272 },
  { "prefix": "BIN", "city": "Bingen am Rhein", "land": "Rhénanie-Palatinat", "lat": 49.9677, "lon": 7.8997 },
  { "prefix": "BIR", "city": "Birkenfeld", "land": "Rhénanie-Palatinat", "lat": 49.6503, "lon": 7.1714 },
  { "prefix": "BIT", "city": "Bitburg-Prüm", "land": "Rhénanie-Palatinat", "lat": 49.9676, "lon": 6.5285 },
  { "prefix": "BIW", "city": "Bischofswerda", "land": "Saxe", "lat": 51.123, "lon": 14.1811 },
  { "prefix": "BK", "city": "Börde", "land": "Saxe-Anhalt", "lat": 52.1462, "lon": 11.3867 },
  { "prefix": "BL", "city": "Zollernalbkreis", "land": "Bade-Wurtemberg", "lat": 48.2167, "lon": 8.8667 },
  { "prefix": "BLB", "city": "Bad Berleburg", "land": "Rhénanie-du-Nord-Westphalie", "lat": 51.0452, "lon": 8.3914 },
  { "prefix": "BLK", "city": "Burgenlandkreis", "land": "Saxe-Anhalt", "lat": 51.2156, "lon": 11.7657 },
  { "prefix": "BM", "city": "Bergheim", "land": "Rhénanie-du-Nord-Westphalie", "lat": 50.9551, "lon": 6.6395 },
  { "prefix": "BN", "city": "Bonn", "land": "Rhénanie-du-Nord-Westphalie", "lat": 50.7374, "lon": 7.0982 },
  { "prefix": "BO", "city": "Bochum", "land": "Rhénanie-du-Nord-Westphalie", "lat": 51.4818, "lon": 7.2162 },
  { "prefix": "BP", "city": "Borken", "land": "Rhénanie-du-Nord-Westphalie", "lat": 51.8434, "lon": 6.8579 },
  { "prefix": "BRB", "city": "Brandenburg an der Havel", "land": "Brandebourg", "lat": 52.4162, "lon": 12.5506 },
  { "prefix": "BS", "city": "Braunschweig", "land": "Basse-Saxe", "lat": 52.2689, "lon": 10.5268 },
  { "prefix": "BT", "city": "Bayreuth", "land": "Bavière", "lat": 49.9481, "lon": 11.5789 },
  { "prefix": "BÜD", "city": "Büdingen", "land": "Hesse", "lat": 50.2896, "lon": 9.1104 },
  { "prefix": "BUL", "city": "Burglengenfeld", "land": "Bavière", "lat": 49.2003, "lon": 12.0451 },
  { "prefix": "BÜS", "city": "Büsingen am Hochrhein", "land": "Bade-Wurtemberg", "lat": 47.6993, "lon": 8.6899 },
  { "prefix": "BZ", "city": "Bautzen", "land": "Saxe", "lat": 51.1807, "lon": 14.4326 },
  { "prefix": "C", "city": "Chemnitz", "land": "Saxe", "lat": 50.8278, "lon": 12.9214 },
  { "prefix": "CA", "city": "Calau", "land": "Brandebourg", "lat": 51.7512, "lon": 14.1196 },
  { "prefix": "CAS", "city": "Castrop-Rauxel", "land": "Rhénanie-du-Nord-Westphalie", "lat": 51.5563, "lon": 7.3116 },
  { "prefix": "CB", "city": "Cottbus", "land": "Brandebourg", "lat": 51.7563, "lon": 14.3329 },
  { "prefix": "CE", "city": "Celle", "land": "Basse-Saxe", "lat": 52.6248, "lon": 10.0815 },
  { "prefix": "CHA", "city": "Cham", "land": "Bavière", "lat": 49.2251, "lon": 12.6666 },
  { "prefix": "CLP", "city": "Cloppenburg", "land": "Basse-Saxe", "lat": 52.8486, "lon": 8.0541 },
  { "prefix": "CO", "city": "Coburg", "land": "Bavière", "lat": 50.2612, "lon": 10.9633 },
  { "prefix": "COC", "city": "Cochem-Zell", "land": "Rhénanie-Palatinat", "lat": 50.1451, "lon": 7.1653 },
  { "prefix": "COE", "city": "Coesfeld", "land": "Rhénanie-du-Nord-Westphalie", "lat": 51.9436, "lon": 7.1637 },
  { "prefix": "CR", "city": "Crailsheim", "land": "Bade-Wurtemberg", "lat": 49.1347, "lon": 10.0724 },
  { "prefix": "CW", "city": "Calw", "land": "Bade-Wurtemberg", "lat": 48.7115, "lon": 8.7366 },
  { "prefix": "D", "city": "Düsseldorf", "land": "Rhénanie-du-Nord-Westphalie", "lat": 51.2277, "lon": 6.7735 },
  { "prefix": "DA", "city": "Darmstadt", "land": "Hesse", "lat": 49.8728, "lon": 8.6512 },
  { "prefix": "DAH", "city": "Dachau", "land": "Bavière", "lat": 48.2595, "lon": 11.4341 },
  { "prefix": "DAN", "city": "Lüchow-Dannenberg", "land": "Basse-Saxe", "lat": 53.036, "lon": 11.1467 },
  { "prefix": "DAU", "city": "Daun", "land": "Rhénanie-Palatinat", "lat": 50.1965, "lon": 6.8292 },
  { "prefix": "DBR", "city": "Bad Doberan", "land": "Mecklembourg-Poméranie-Occidentale", "lat": 54.1018, "lon": 11.9067 },
  { "prefix": "DD", "city": "Dresde", "land": "Saxe", "lat": 51.0504, "lon": 13.7373 },
  { "prefix": "DE", "city": "Dessau-Roßlau", "land": "Saxe-Anhalt", "lat": 51.8306, "lon": 12.2424 },
  { "prefix": "DEL", "city": "Delmenhorst", "land": "Basse-Saxe", "lat": 53.0503, "lon": 8.6316 },
  { "prefix": "DGF", "city": "Dingolfing-Landau", "land": "Bavière", "lat": 48.6322, "lon": 12.5654 },
  { "prefix": "DH", "city": "Diepholz", "land": "Basse-Saxe", "lat": 52.6016, "lon": 8.3724 },
  { "prefix": "DI", "city": "Dieburg", "land": "Hesse", "lat": 49.8986, "lon": 8.8467 },
  { "prefix": "DIL", "city": "Dillenburg", "land": "Hesse", "lat": 50.7403, "lon": 8.2863 },
  { "prefix": "DIN", "city": "Dinslaken", "land": "Rhénanie-du-Nord-Westphalie", "lat": 51.5623, "lon": 6.7436 },
  { "prefix": "DIZ", "city": "Diez", "land": "Rhénanie-Palatinat", "lat": 50.3747, "lon": 8.0061 },
  { "prefix": "DKB", "city": "Dinkelsbühl", "land": "Bavière", "lat": 49.0693, "lon": 10.3219 },
  { "prefix": "DL", "city": "Delitzsch", "land": "Saxe", "lat": 51.5258, "lon": 12.3426 },
  { "prefix": "DM", "city": "Demmin", "land": "Mecklembourg-Poméranie-Occidentale", "lat": 53.9004, "lon": 13.0282 },
  { "prefix": "DN", "city": "Düren", "land": "Rhénanie-du-Nord-Westphalie", "lat": 50.8046, "lon": 6.4848 },
  { "prefix": "DO", "city": "Dortmund", "land": "Rhénanie-du-Nord-Westphalie", "lat": 51.5136, "lon": 7.4653 },
  { "prefix": "DON", "city": "Donau-Ries", "land": "Bavière", "lat": 48.7188, "lon": 10.6917 },
  { "prefix": "DU", "city": "Duisburg", "land": "Rhénanie-du-Nord-Westphalie", "lat": 51.4344, "lon": 6.7623 },
  { "prefix": "DÜW", "city": "Bad Dürkheim", "land": "Rhénanie-Palatinat", "lat": 49.4601, "lon": 8.1669 },
  { "prefix": "DW", "city": "Dippoldiswalde", "land": "Saxe", "lat": 50.896, "lon": 13.6686 },
  { "prefix": "DZ", "city": "Delitzsch", "land": "Saxe", "lat": 51.5258, "lon": 12.3426 },
  { "prefix": "E", "city": "Essen", "land": "Rhénanie-du-Nord-Westphalie", "lat": 51.4566, "lon": 7.0123 },
  { "prefix": "EA", "city": "Eisenach", "land": "Thuringe", "lat": 50.9805, "lon": 10.3156 },
  { "prefix": "EBE", "city": "Ebersberg", "land": "Bavière", "lat": 48.0801, "lon": 11.9694 },
  { "prefix": "EBN", "city": "Ebern", "land": "Bavière", "lat": 50.0957, "lon": 10.7992 },
  { "prefix": "EBS", "city": "Ebermannstadt", "land": "Bavière", "lat": 49.784, "lon": 11.1856 },
  { "prefix": "ECK", "city": "Eckernförde", "land": "Schleswig-Holstein", "lat": 54.4727, "lon": 9.8362 },
  { "prefix": "ED", "city": "Erding", "land": "Bavière", "lat": 48.3066, "lon": 11.9062 },
  { "prefix": "EE", "city": "Elbe-Elster", "land": "Brandebourg", "lat": 51.463, "lon": 13.3368 },
  { "prefix": "EF", "city": "Erfurt", "land": "Thuringe", "lat": 50.977, "lon": 11.0287 },
  { "prefix": "EG", "city": "Eggenfelden", "land": "Bavière", "lat": 48.4006, "lon": 12.7593 },
  { "prefix": "EH", "city": "Eisenhüttenstadt", "land": "Brandebourg", "lat": 52.1442, "lon": 14.6356 },
  { "prefix": "EI", "city": "Eichstätt", "land": "Bavière", "lat": 48.886, "lon": 11.1866 },
  { "prefix": "EIC", "city": "Eichsfeld", "land": "Thuringe", "lat": 51.3721, "lon": 10.3232 },
  { "prefix": "EIL", "city": "Eilenburg", "land": "Saxe", "lat": 51.4598, "lon": 12.6306 },
  { "prefix": "EIN", "city": "Einbeck", "land": "Basse-Saxe", "lat": 51.8213, "lon": 9.8676 },
  { "prefix": "EIS", "city": "Eisenberg", "land": "Thuringe", "lat": 50.9726, "lon": 11.8988 },
  { "prefix": "EL", "city": "Emsland", "land": "Basse-Saxe", "lat": 52.6853, "lon": 7.2877 },
  { "prefix": "EM", "city": "Emmendingen", "land": "Bade-Wurtemberg", "lat": 48.1202, "lon": 7.8483 },
  { "prefix": "EMD", "city": "Emden", "land": "Basse-Saxe", "lat": 53.3675, "lon": 7.2061 },
  { "prefix": "EMS", "city": "Rhein-Lahn-Kreis", "land": "Rhénanie-Palatinat", "lat": 50.3281, "lon": 7.7162 },
  { "prefix": "EN", "city": "Ennepe-Ruhr-Kreis", "land": "Rhénanie-du-Nord-Westphalie", "lat": 51.388, "lon": 7.4103 },
  { "prefix": "ER", "city": "Erlangen", "land": "Bavière", "lat": 49.5954, "lon": 11.0048 },
  { "prefix": "ERB", "city": "Odenwaldkreis", "land": "Hesse", "lat": 49.6597, "lon": 9.0056 },
  { "prefix": "ERH", "city": "Erlangen-Höchstadt", "land": "Bavière", "lat": 49.6516, "lon": 10.9417 },
  { "prefix": "ES", "city": "Esslingen am Neckar", "land": "Bade-Wurtemberg", "lat": 48.7396, "lon": 9.3047 },
  { "prefix": "ESW", "city": "Werra-Meißner-Kreis", "land": "Hesse", "lat": 51.1964, "lon": 9.9576 },
  { "prefix": "EU", "city": "Euskirchen", "land": "Rhénanie-du-Nord-Westphalie", "lat": 50.6583, "lon": 6.7871 },
  { "prefix": "F", "city": "Francfort-sur-le-Main", "land": "Hesse", "lat": 50.1109, "lon": 8.6821 },
  { "prefix": "FB", "city": "Friedberg (Hesse)", "land": "Hesse", "lat": 50.3394, "lon": 8.7537 },
  { "prefix": "FD", "city": "Fulda", "land": "Hesse", "lat": 50.5514, "lon": 9.6752 },
  { "prefix": "FDB", "city": "Friedberg (Bavière)", "land": "Bavière", "lat": 48.3565, "lon": 10.9867 },
  { "prefix": "FDS", "city": "Freudenstadt", "land": "Bade-Wurtemberg", "lat": 48.4648, "lon": 8.4142 },
  { "prefix": "FEU", "city": "Feuchtwangen", "land": "Bavière", "lat": 49.1621, "lon": 10.3323 },
  { "prefix": "FF", "city": "Francfort-sur-l'Oder", "land": "Brandebourg", "lat": 52.3471, "lon": 14.5506 },
  { "prefix": "FFB", "city": "Fürstenfeldbruck", "land": "Bavière", "lat": 48.1792, "lon": 11.2543 },
  { "prefix": "FG", "city": "Freiberg", "land": "Saxe", "lat": 50.9106, "lon": 13.3426 },
  { "prefix": "FL", "city": "Flensburg", "land": "Schleswig-Holstein", "lat": 54.7939, "lon": 9.4465 },
  { "prefix": "FN", "city": "Friedrichshafen", "land": "Bade-Wurtemberg", "lat": 47.6542, "lon": 9.4797 },
  { "prefix": "FO", "city": "Forchheim", "land": "Bavière", "lat": 49.7171, "lon": 11.0582 },
  { "prefix": "FOR", "city": "Forst (Lausitz)", "land": "Brandebourg", "lat": 51.7356, "lon": 14.6379 },
  { "prefix": "FR", "city": "Fribourg-en-Brisgau", "land": "Bade-Wurtemberg", "lat": 47.999, "lon": 7.8421 },
  { "prefix": "FRG", "city": "Freyung-Grafenau", "land": "Bavière", "lat": 48.8088, "lon": 13.4277 },
  { "prefix": "FRI", "city": "Frise orientale", "land": "Basse-Saxe", "lat": 53.5743, "lon": 7.8926 },
  { "prefix": "FRW", "city": "Bad Freienwalde", "land": "Brandebourg", "lat": 52.7858, "lon": 14.0363 },
  { "prefix": "FS", "city": "Freising", "land": "Bavière", "lat": 48.4031, "lon": 11.7478 },
  { "prefix": "FT", "city": "Frankenthal", "land": "Rhénanie-Palatinat", "lat": 49.5384, "lon": 8.3521 },
  { "prefix": "FÜ", "city": "Fürth", "land": "Bavière", "lat": 49.4774, "lon": 10.9886 },
  { "prefix": "GA", "city": "Gardelegen", "land": "Saxe-Anhalt", "lat": 52.5236, "lon": 11.3972 },
  { "prefix": "GAP", "city": "Garmisch-Partenkirchen", "land": "Bavière", "lat": 47.4917, "lon": 11.0951 },
  { "prefix": "GC", "city": "Glauchau", "land": "Saxe", "lat": 50.8193, "lon": 12.5405 },
  { "prefix": "GDB", "city": "Gadebusch", "land": "Mecklembourg-Poméranie-Occidentale", "lat": 53.7044, "lon": 11.1125 },
  { "prefix": "GE", "city": "Gelsenkirchen", "land": "Rhénanie-du-Nord-Westphalie", "lat": 51.5177, "lon": 7.0857 },
  { "prefix": "GEL", "city": "Geldern", "land": "Rhénanie-du-Nord-Westphalie", "lat": 51.5199, "lon": 6.3259 },
  { "prefix": "GEO", "city": "Gerolzhofen", "land": "Bavière", "lat": 49.9018, "lon": 10.3513 },
  { "prefix": "GER", "city": "Germersheim", "land": "Rhénanie-Palatinat", "lat": 49.2256, "lon": 8.3647 },
  { "prefix": "GF", "city": "Gifhorn", "land": "Basse-Saxe", "lat": 52.4851, "lon": 10.5456 },
  { "prefix": "GG", "city": "Groß-Gerau", "land": "Hesse", "lat": 49.9253, "lon": 8.4895 },
  { "prefix": "GHA", "city": "Geithain", "land": "Saxe", "lat": 51.0497, "lon": 12.6983 },
  { "prefix": "GI", "city": "Gießen", "land": "Hesse", "lat": 50.5841, "lon": 8.6784 },
  { "prefix": "GK", "city": "Geilenkirchen", "land": "Rhénanie-du-Nord-Westphalie", "lat": 50.9674, "lon": 6.1176 },
  { "prefix": "GL", "city": "Bergisch Gladbach", "land": "Rhénanie-du-Nord-Westphalie", "lat": 50.9856, "lon": 7.1327 },
  { "prefix": "GM", "city": "Gummersbach", "land": "Rhénanie-du-Nord-Westphalie", "lat": 51.025, "lon": 7.5647 },
  { "prefix": "GN", "city": "Gelnhausen", "land": "Hesse", "lat": 50.2002, "lon": 9.1876 },
  { "prefix": "GÖ", "city": "Göttingen", "land": "Basse-Saxe", "lat": 51.5322, "lon": 9.9356 },
  { "prefix": "GP", "city": "Göppingen", "land": "Bade-Wurtemberg", "lat": 48.7058, "lon": 9.6542 },
  { "prefix": "GR", "city": "Görlitz", "land": "Saxe", "lat": 51.1528, "lon": 14.9684 },
  { "prefix": "GRH", "city": "Großenhain", "land": "Saxe", "lat": 51.2897, "lon": 13.5382 },
  { "prefix": "GRI", "city": "Griesbach", "land": "Bavière", "lat": 48.4031, "lon": 13.1832 },
  { "prefix": "GRM", "city": "Grimma", "land": "Saxe", "lat": 51.2335, "lon": 12.7248 },
  { "prefix": "GS", "city": "Goslar", "land": "Basse-Saxe", "lat": 51.9043, "lon": 10.4277 },
  { "prefix": "GT", "city": "Gütersloh", "land": "Rhénanie-du-Nord-Westphalie", "lat": 51.9063, "lon": 8.3787 },
  { "prefix": "GTH", "city": "Gotha", "land": "Thuringe", "lat": 50.9483, "lon": 10.7017 },
  { "prefix": "GÜ", "city": "Güstrow", "land": "Mecklembourg-Poméranie-Occidentale", "lat": 53.7976, "lon": 12.1758 },
  { "prefix": "GZ", "city": "Günzburg", "land": "Bavière", "lat": 48.4552, "lon": 10.2703 },
  { "prefix": "H", "city": "Hanovre", "land": "Basse-Saxe", "lat": 52.3759, "lon": 9.732 },
  { "prefix": "HA", "city": "Hagen", "land": "Rhénanie-du-Nord-Westphalie", "lat": 51.3671, "lon": 7.4633 },
  { "prefix": "HAL", "city": "Halle (Saale)", "land": "Saxe-Anhalt", "lat": 51.4821, "lon": 11.9691 },
  { "prefix": "HAM", "city": "Hamm", "land": "Rhénanie-du-Nord-Westphalie", "lat": 51.6739, "lon": 7.8159 },
  { "prefix": "HAS", "city": "Haßberge", "land": "Bavière", "lat": 50.1051, "lon": 10.5223 },
  { "prefix": "HB", "city": "Brême", "land": "Brême", "lat": 53.0793, "lon": 8.8017 },
  { "prefix": "HBN", "city": "Hildburghausen", "land": "Thuringe", "lat": 50.4274, "lon": 10.7264 },
  { "prefix": "HBS", "city": "Harz", "land": "Saxe-Anhalt", "lat": 51.7858, "lon": 10.822 },
  { "prefix": "HD", "city": "Heidelberg", "land": "Bade-Wurtemberg", "lat": 49.3988, "lon": 8.6724 },
  { "prefix": "HDH", "city": "Heidenheim", "land": "Bade-Wurtemberg", "lat": 48.6771, "lon": 10.1518 },
  { "prefix": "HE", "city": "Hersfeld-Rotenburg", "land": "Hesse", "lat": 50.8711, "lon": 9.7041 },
  { "prefix": "HEF", "city": "Bad Hersfeld", "land": "Hesse", "lat": 50.8709, "lon": 9.7041 },
  { "prefix": "HEI", "city": "Heide", "land": "Schleswig-Holstein", "lat": 54.196, "lon": 9.098 },
  { "prefix": "HER", "city": "Herne", "land": "Rhénanie-du-Nord-Westphalie", "lat": 51.5386, "lon": 7.2257 },
  { "prefix": "HF", "city": "Herford", "land": "Rhénanie-du-Nord-Westphalie", "lat": 52.1157, "lon": 8.6733 },
  { "prefix": "HG", "city": "Hochtaunuskreis", "land": "Hesse", "lat": 50.2289, "lon": 8.6107 },
  { "prefix": "HGW", "city": "Greifswald", "land": "Mecklembourg-Poméranie-Occidentale", "lat": 54.0934, "lon": 13.3879 },
  { "prefix": "HH", "city": "Hambourg", "land": "Hambourg", "lat": 53.5511, "lon": 9.9937 },
  { "prefix": "HI", "city": "Hildesheim", "land": "Basse-Saxe", "lat": 52.1508, "lon": 9.9511 },
  { "prefix": "HL", "city": "Lübeck", "land": "Schleswig-Holstein", "lat": 53.8655, "lon": 10.6866 },
  { "prefix": "HM", "city": "Hameln-Pyrmont", "land": "Basse-Saxe", "lat": 52.1046, "lon": 9.3566 },
  { "prefix": "HN", "city": "Heilbronn", "land": "Bade-Wurtemberg", "lat": 49.1406, "lon": 9.2205 },
  { "prefix": "HO", "city": "Hof", "land": "Bavière", "lat": 50.3139, "lon": 11.9128 },
  { "prefix": "HOM", "city": "Sarre-Palatinat", "land": "Sarre", "lat": 49.3264, "lon": 7.3439 },
  { "prefix": "HP", "city": "Bergstraße", "land": "Hesse", "lat": 49.6019, "lon": 8.6657 },
  { "prefix": "HR", "city": "Schwalm-Eder-Kreis", "land": "Hesse", "lat": 50.9422, "lon": 9.4092 },
  { "prefix": "HS", "city": "Heinsberg", "land": "Rhénanie-du-Nord-Westphalie", "lat": 51.0637, "lon": 6.0998 },
  { "prefix": "HSK", "city": "Hochsauerlandkreis", "land": "Rhénanie-du-Nord-Westphalie", "lat": 51.3713, "lon": 8.2517 },
  { "prefix": "HST", "city": "Stralsund", "land": "Mecklembourg-Poméranie-Occidentale", "lat": 54.3108, "lon": 13.0874 },
  { "prefix": "HU", "city": "Main-Kinzig-Kreis", "land": "Hesse", "lat": 50.1359, "lon": 8.9172 },
  { "prefix": "HVL", "city": "Havelland", "land": "Brandebourg", "lat": 52.6061, "lon": 12.3943 },
  { "prefix": "HWI", "city": "Wismar", "land": "Mecklembourg-Poméranie-Occidentale", "lat": 53.8925, "lon": 11.4637 },
  { "prefix": "HY", "city": "Hoyerswerda", "land": "Saxe", "lat": 51.4424, "lon": 14.2528 },
  { "prefix": "IGB", "city": "Sankt Ingbert", "land": "Sarre", "lat": 49.2782, "lon": 7.1168 },
  { "prefix": "IK", "city": "Ilm-Kreis", "land": "Thuringe", "lat": 50.6906, "lon": 10.9867 },
  { "prefix": "IL", "city": "Ilmenau", "land": "Thuringe", "lat": 50.6811, "lon": 10.9186 },
  { "prefix": "IN", "city": "Ingolstadt", "land": "Bavière", "lat": 48.7656, "lon": 11.4237 },
  { "prefix": "IZ", "city": "Itzehoe", "land": "Schleswig-Holstein", "lat": 53.921, "lon": 9.5156 },
  { "prefix": "JE", "city": "Jena", "land": "Thuringe", "lat": 50.9271, "lon": 11.5892 },
  { "prefix": "JL", "city": "Jerichower Land", "land": "Saxe-Anhalt", "lat": 52.2667, "lon": 12.0502 },
  { "prefix": "K", "city": "Cologne", "land": "Rhénanie-du-Nord-Westphalie", "lat": 50.9375, "lon": 6.9603 },
  { "prefix": "KA", "city": "Karlsruhe", "land": "Bade-Wurtemberg", "lat": 49.0069, "lon": 8.4037 },
  { "prefix": "KB", "city": "Korbach", "land": "Hesse", "lat": 51.275, "lon": 8.8653 },
  { "prefix": "KC", "city": "Kronach", "land": "Bavière", "lat": 50.2395, "lon": 11.3275 },
  { "prefix": "KE", "city": "Kempten (Allgäu)", "land": "Bavière", "lat": 47.7267, "lon": 10.3139 },
  { "prefix": "KEH", "city": "Kelheim", "land": "Bavière", "lat": 48.9147, "lon": 11.8728 },
  { "prefix": "KF", "city": "Kaufbeuren", "land": "Bavière", "lat": 47.8831, "lon": 10.6223 },
  { "prefix": "KG", "city": "Bad Kissingen", "land": "Bavière", "lat": 50.2008, "lon": 10.0771 },
  { "prefix": "KH", "city": "Bad Kreuznach", "land": "Rhénanie-Palatinat", "lat": 49.8415, "lon": 7.8676 },
  { "prefix": "KI", "city": "Kiel", "land": "Schleswig-Holstein", "lat": 54.3233, "lon": 10.1228 },
  { "prefix": "KLE", "city": "Kleve", "land": "Rhénanie-du-Nord-Westphalie", "lat": 51.7882, "lon": 6.1386 },
  { "prefix": "KL", "city": "Kaiserslautern", "land": "Rhénanie-Palatinat", "lat": 49.4401, "lon": 7.7491 },
  { "prefix": "KLT", "city": "Kaltennordheim", "land": "Thuringe", "lat": 50.6642, "lon": 10.1578 },
  { "prefix": "KM", "city": "Kamenz", "land": "Saxe", "lat": 51.2667, "lon": 14.0901 },
  { "prefix": "KN", "city": "Constance", "land": "Bade-Wurtemberg", "lat": 47.6779, "lon": 9.1732 },
  { "prefix": "KO", "city": "Coblence", "land": "Rhénanie-Palatinat", "lat": 50.3569, "lon": 7.5889 },
  { "prefix": "KÖN", "city": "Königs Wusterhausen", "land": "Brandebourg", "lat": 52.2961, "lon": 13.6311 },
  { "prefix": "KÖZ", "city": "Köthen", "land": "Saxe-Anhalt", "lat": 51.7516, "lon": 11.9729 },
  { "prefix": "KR", "city": "Krefeld", "land": "Rhénanie-du-Nord-Westphalie", "lat": 51.3388, "lon": 6.5853 },
  { "prefix": "KS", "city": "Kassel", "land": "Hesse", "lat": 51.3127, "lon": 9.4797 },
  { "prefix": "KT", "city": "Kitzingen", "land": "Bavière", "lat": 49.7394, "lon": 10.1482 },
  { "prefix": "KU", "city": "Kulmbach", "land": "Bavière", "lat": 50.1082, "lon": 11.4401 },
  { "prefix": "KÜN", "city": "Hohenlohekreis", "land": "Bade-Wurtemberg", "lat": 49.2491, "lon": 9.6844 },
  { "prefix": "KUS", "city": "Kusel", "land": "Rhénanie-Palatinat", "lat": 49.5375, "lon": 7.4015 },
  { "prefix": "KW", "city": "Königs Wusterhausen", "land": "Brandebourg", "lat": 52.2961, "lon": 13.6311 },
  { "prefix": "L", "city": "Leipzig", "land": "Saxe", "lat": 51.3397, "lon": 12.3731 },
  { "prefix": "LA", "city": "Landshut", "land": "Bavière", "lat": 48.5296, "lon": 12.1618 },
  { "prefix": "LAN", "city": "Landau an der Isar", "land": "Bavière", "lat": 48.6693, "lon": 12.6981 },
  { "prefix": "LB", "city": "Ludwigsbourg", "land": "Bade-Wurtemberg", "lat": 48.8973, "lon": 9.1929 },
  { "prefix": "LD", "city": "Landau in der Pfalz", "land": "Rhénanie-Palatinat", "lat": 49.1981, "lon": 8.1162 },
  { "prefix": "LDS", "city": "Dahme-Spreewald", "land": "Brandebourg", "lat": 52.2466, "lon": 13.6289 },
  { "prefix": "LEO", "city": "Leonberg", "land": "Bade-Wurtemberg", "lat": 48.7997, "lon": 9.0112 },
  { "prefix": "LER", "city": "Leer (Ostfriesland)", "land": "Basse-Saxe", "lat": 53.2303, "lon": 7.461 },
  { "prefix": "LEV", "city": "Leverkusen", "land": "Rhénanie-du-Nord-Westphalie", "lat": 51.0459, "lon": 7.0192 },
  { "prefix": "LG", "city": "Lüneburg", "land": "Basse-Saxe", "lat": 53.2462, "lon": 10.4105 },
  { "prefix": "LH", "city": "Lüdinghausen", "land": "Rhénanie-du-Nord-Westphalie", "lat": 51.7673, "lon": 7.4437 },
  { "prefix": "LI", "city": "Lindau", "land": "Bavière", "lat": 47.5464, "lon": 9.6848 },
  { "prefix": "LIF", "city": "Lichtenfels", "land": "Bavière", "lat": 50.1458, "lon": 11.0639 },
  { "prefix": "LIP", "city": "Lippe", "land": "Rhénanie-du-Nord-Westphalie", "lat": 51.9517, "lon": 8.8827 },
  { "prefix": "LL", "city": "Landsberg am Lech", "land": "Bavière", "lat": 48.0481, "lon": 10.8829 },
  { "prefix": "LM", "city": "Limburg an der Lahn", "land": "Hesse", "lat": 50.3841, "lon": 8.0498 },
  { "prefix": "LN", "city": "Lübben", "land": "Brandebourg", "lat": 51.9437, "lon": 13.8871 },
  { "prefix": "LÖ", "city": "Lörrach", "land": "Bade-Wurtemberg", "lat": 47.6141, "lon": 7.6625 },
  { "prefix": "LOS", "city": "Oder-Spree", "land": "Brandebourg", "lat": 52.3404, "lon": 14.2901 },
  { "prefix": "LP", "city": "Lippstadt", "land": "Rhénanie-du-Nord-Westphalie", "lat": 51.6732, "lon": 8.3441 },
  { "prefix": "LR", "city": "Lahr/Schwarzwald", "land": "Bade-Wurtemberg", "lat": 48.3401, "lon": 7.8724 },
  { "prefix": "LSA", "city": "Sachsen-Anhalt", "land": "Saxe-Anhalt", "lat": 51.9501, "lon": 11.6924 },
  { "prefix": "LSN", "city": "Sachsen", "land": "Saxe", "lat": 51.1045, "lon": 13.2017 },
  { "prefix": "LU", "city": "Ludwigshafen am Rhein", "land": "Rhénanie-Palatinat", "lat": 49.4774, "lon": 8.4452 },
  { "prefix": "LÜD", "city": "Lüdenscheid", "land": "Rhénanie-du-Nord-Westphalie", "lat": 51.2198, "lon": 7.6273 },
  { "prefix": "LUN", "city": "Lüneburg", "land": "Basse-Saxe", "lat": 53.2462, "lon": 10.4105 },
  { "prefix": "LWL", "city": "Ludwigslust", "land": "Mecklembourg-Poméranie-Occidentale", "lat": 53.3261, "lon": 11.4978 },
  { "prefix": "M", "city": "Munich", "land": "Bavière", "lat": 48.1351, "lon": 11.582 },
  { "prefix": "MA", "city": "Mannheim", "land": "Bade-Wurtemberg", "lat": 49.4875, "lon": 8.466 },
  { "prefix": "MB", "city": "Miesbach", "land": "Bavière", "lat": 47.7895, "lon": 11.8319 },
  { "prefix": "MD", "city": "Magdebourg", "land": "Saxe-Anhalt", "lat": 52.1205, "lon": 11.6276 },
  { "prefix": "ME", "city": "Mettmann", "land": "Rhénanie-du-Nord-Westphalie", "lat": 51.2514, "lon": 6.9782 },
  { "prefix": "MEI", "city": "Meissen", "land": "Saxe", "lat": 51.1631, "lon": 13.4734 },
  { "prefix": "MG", "city": "Mönchengladbach", "land": "Rhénanie-du-Nord-Westphalie", "lat": 51.1805, "lon": 6.4423 },
  { "prefix": "MH", "city": "Mülheim an der Ruhr", "land": "Rhénanie-du-Nord-Westphalie", "lat": 51.4186, "lon": 6.8847 },
  { "prefix": "MI", "city": "Minden", "land": "Rhénanie-du-Nord-Westphalie", "lat": 52.2897, "lon": 8.9145 },
  { "prefix": "MIL", "city": "Miltenberg", "land": "Bavière", "lat": 49.7048, "lon": 9.2676 },
  { "prefix": "MK", "city": "Märkischer Kreis", "land": "Rhénanie-du-Nord-Westphalie", "lat": 51.3557, "lon": 7.6905 },
  { "prefix": "ML", "city": "Mansfeld-Südharz", "land": "Saxe-Anhalt", "lat": 51.5156, "lon": 11.5479 },
  { "prefix": "MM", "city": "Memmingen", "land": "Bavière", "lat": 47.9872, "lon": 10.1815 },
  { "prefix": "MN", "city": "Unterallgäu", "land": "Bavière", "lat": 48.0491, "lon": 10.3161 },
  { "prefix": "MO", "city": "Moers", "land": "Rhénanie-du-Nord-Westphalie", "lat": 51.4505, "lon": 6.6261 },
  { "prefix": "MOS", "city": "Neckar-Odenwald-Kreis", "land": "Bade-Wurtemberg", "lat": 49.5261, "lon": 9.1497 },
  { "prefix": "MQ", "city": "Merseburg-Querfurt", "land": "Saxe-Anhalt", "lat": 51.3528, "lon": 11.9886 },
  { "prefix": "MR", "city": "Marbourg-Biedenkopf", "land": "Hesse", "lat": 50.8022, "lon": 8.7665 },
  { "prefix": "MS", "city": "Münster", "land": "Rhénanie-du-Nord-Westphalie", "lat": 51.9607, "lon": 7.6261 },
  { "prefix": "MSH", "city": "Mansfeld-Südharz", "land": "Saxe-Anhalt", "lat": 51.5156, "lon": 11.5479 },
  { "prefix": "MSP", "city": "Main-Spessart", "land": "Bavière", "lat": 49.9776, "lon": 9.6192 },
  { "prefix": "MST", "city": "Mecklembourg-Strelitz", "land": "Mecklembourg-Poméranie-Occidentale", "lat": 53.5161, "lon": 13.2506 },
  { "prefix": "MTK", "city": "Main-Taunus-Kreis", "land": "Hesse", "lat": 50.1472, "lon": 8.4697 },
  { "prefix": "MTL", "city": "Muldental", "land": "Saxe", "lat": 51.2493, "lon": 12.6929 },
  { "prefix": "MÜ", "city": "Mühldorf am Inn", "land": "Bavière", "lat": 48.2464, "lon": 12.5218 },
  { "prefix": "MÜB", "city": "Münchberg", "land": "Bavière", "lat": 50.1848, "lon": 11.7884 },
  { "prefix": "MÜR", "city": "Müritz", "land": "Mecklembourg-Poméranie-Occidentale", "lat": 53.4331, "lon": 12.6832 },
  { "prefix": "MVL", "city": "Mecklenburg-Vorpommern", "land": "Mecklembourg-Poméranie-Occidentale", "lat": 53.6127, "lon": 12.4296 },
  { "prefix": "MY", "city": "Mayen", "land": "Rhénanie-Palatinat", "lat": 50.3287, "lon": 7.2223 },
  { "prefix": "MYK", "city": "Mayen-Koblenz", "land": "Rhénanie-Palatinat", "lat": 50.3701, "lon": 7.4661 },
  { "prefix": "MZ", "city": "Mayence", "land": "Rhénanie-Palatinat", "lat": 50.001, "lon": 8.2747 },
  { "prefix": "N", "city": "Nuremberg", "land": "Bavière", "lat": 49.4521, "lon": 11.0767 },
  { "prefix": "NB", "city": "Neubrandenbourg", "land": "Mecklembourg-Poméranie-Occidentale", "lat": 53.5641, "lon": 13.2753 },
  { "prefix": "ND", "city": "Neubourg-sur-le-Danube", "land": "Bavière", "lat": 48.7331, "lon": 11.1807 },
  { "prefix": "NE", "city": "Neuss", "land": "Rhénanie-du-Nord-Westphalie", "lat": 51.2042, "lon": 6.6879 },
  { "prefix": "NEA", "city": "Neustadt an der Aisch", "land": "Bavière", "lat": 49.5789, "lon": 10.6129 },
  { "prefix": "NES", "city": "Rhön-Grabfeld", "land": "Bavière", "lat": 50.3645, "lon": 10.2097 },
  { "prefix": "NEW", "city": "Neustadt an der Waldnaab", "land": "Bavière", "lat": 49.7316, "lon": 12.1787 },
  { "prefix": "NF", "city": "Frise-du-Nord", "land": "Schleswig-Holstein", "lat": 54.4622, "lon": 9.0274 },
  { "prefix": "NI", "city": "Nienburg/Weser", "land": "Basse-Saxe", "lat": 52.6375, "lon": 9.2063 },
  { "prefix": "NK", "city": "Neunkirchen", "land": "Sarre", "lat": 49.3505, "lon": 7.1847 },
  { "prefix": "NL", "city": "Niedersachsen", "land": "Basse-Saxe", "lat": 52.6367, "lon": 9.8451 },
  { "prefix": "NM", "city": "Neumarkt in der Oberpfalz", "land": "Bavière", "lat": 49.2803, "lon": 11.4623 },
  { "prefix": "NMB", "city": "Naumburg (Saale)", "land": "Saxe-Anhalt", "lat": 51.1528, "lon": 11.8103 },
  { "prefix": "NR", "city": "Neuwied", "land": "Rhénanie-Palatinat", "lat": 50.4361, "lon": 7.4705 },
  { "prefix": "NU", "city": "Neu-Ulm", "land": "Bavière", "lat": 48.3926, "lon": 10.0026 },
  { "prefix": "NW", "city": "Neustadt an der Weinstraße", "land": "Rhénanie-Palatinat", "lat": 49.3502, "lon": 8.1385 },
  { "prefix": "NWM", "city": "Nordwestmecklenburg", "land": "Mecklembourg-Poméranie-Occidentale", "lat": 53.8705, "lon": 11.1306 },
  { "prefix": "NY", "city": "Niesky", "land": "Saxe", "lat": 51.2913, "lon": 14.8254 },
  { "prefix": "OA", "city": "Oberallgäu", "land": "Bavière", "lat": 47.5822, "lon": 10.2641 },
  { "prefix": "OAL", "city": "Ostallgäu", "land": "Bavière", "lat": 47.7322, "lon": 10.6742 },
  { "prefix": "OB", "city": "Oberhausen", "land": "Rhénanie-du-Nord-Westphalie", "lat": 51.4964, "lon": 6.8638 },
  { "prefix": "OD", "city": "Stormarn", "land": "Schleswig-Holstein", "lat": 53.6961, "lon": 10.2768 },
  { "prefix": "OE", "city": "Olpe", "land": "Rhénanie-du-Nord-Westphalie", "lat": 51.0281, "lon": 7.8491 },
  { "prefix": "OF", "city": "Offenbach-sur-le-Main", "land": "Hesse", "lat": 50.0956, "lon": 8.7761 },
  { "prefix": "OG", "city": "Ortenaukreis", "land": "Bade-Wurtemberg", "lat": 48.4836, "lon": 7.9434 },
  { "prefix": "OH", "city": "Ostholstein", "land": "Schleswig-Holstein", "lat": 54.1757, "lon": 10.8078 },
  { "prefix": "OHA", "city": "Osterode am Harz", "land": "Basse-Saxe", "lat": 51.7278, "lon": 10.2462 },
  { "prefix": "OHV", "city": "Oberhavel", "land": "Brandebourg", "lat": 52.8037, "lon": 13.2066 },
  { "prefix": "OL", "city": "Oldenbourg", "land": "Basse-Saxe", "lat": 53.1435, "lon": 8.2146 },
  { "prefix": "OPR", "city": "Ostprignitz-Ruppin", "land": "Brandebourg", "lat": 53.1434, "lon": 12.4087 },
  { "prefix": "OS", "city": "Osnabrück", "land": "Basse-Saxe", "lat": 52.2799, "lon": 8.0472 },
  { "prefix": "OSL", "city": "Oberspreewald-Lausitz", "land": "Brandebourg", "lat": 51.4648, "lon": 13.9433 },
  { "prefix": "OVP", "city": "Ostvorpommern", "land": "Mecklembourg-Poméranie-Occidentale", "lat": 53.9192, "lon": 13.6701 },
  { "prefix": "P", "city": "Potsdam", "land": "Brandebourg", "lat": 52.3906, "lon": 13.0645 },
  { "prefix": "PA", "city": "Passau", "land": "Bavière", "lat": 48.5667, "lon": 13.4319 },
  { "prefix": "PAN", "city": "Rottal-Inn", "land": "Bavière", "lat": 48.4301, "lon": 12.8248 },
  { "prefix": "PB", "city": "Paderborn", "land": "Rhénanie-du-Nord-Westphalie", "lat": 51.7189, "lon": 8.7575 },
  { "prefix": "PE", "city": "Peine", "land": "Basse-Saxe", "lat": 52.3208, "lon": 10.2356 },
  { "prefix": "PF", "city": "Pforzheim", "land": "Bade-Wurtemberg", "lat": 48.8922, "lon": 8.6988 },
  { "prefix": "PI", "city": "Pinneberg", "land": "Schleswig-Holstein", "lat": 53.6619, "lon": 9.8003 },
  { "prefix": "PL", "city": "Plauen", "land": "Saxe", "lat": 50.4977, "lon": 12.1374 },
  { "prefix": "PLÖ", "city": "Plön", "land": "Schleswig-Holstein", "lat": 54.1619, "lon": 10.4253 },
  { "prefix": "PM", "city": "Potsdam-Mittelmark", "land": "Brandebourg", "lat": 52.2177, "lon": 12.6721 },
  { "prefix": "PR", "city": "Prignitz", "land": "Brandebourg", "lat": 53.1524, "lon": 11.7526 },
  { "prefix": "PS", "city": "Pirmasens", "land": "Rhénanie-Palatinat", "lat": 49.2012, "lon": 7.6052 },
  { "prefix": "PW", "city": "Prenzlau", "land": "Brandebourg", "lat": 53.3177, "lon": 13.8595 },
  { "prefix": "QFT", "city": "Querfurt", "land": "Saxe-Anhalt", "lat": 51.3778, "lon": 11.6012 },
  { "prefix": "R", "city": "Ratisbonne", "land": "Bavière", "lat": 49.0134, "lon": 12.1016 },
  { "prefix": "RD", "city": "Rendsburg-Eckernförde", "land": "Schleswig-Holstein", "lat": 54.3007, "lon": 9.6635 },
  { "prefix": "RE", "city": "Recklinghausen", "land": "Rhénanie-du-Nord-Westphalie", "lat": 51.6141, "lon": 7.1979 },
  { "prefix": "REG", "city": "Regen", "land": "Bavière", "lat": 48.9686, "lon": 13.1325 },
  { "prefix": "RH", "city": "Roth", "land": "Bavière", "lat": 49.2476, "lon": 11.0905 },
  { "prefix": "RO", "city": "Rosenheim", "land": "Bavière", "lat": 47.8564, "lon": 12.1286 },
  { "prefix": "ROW", "city": "Rotenburg (Wümme)", "land": "Basse-Saxe", "lat": 53.1079, "lon": 9.4115 },
  { "prefix": "RS", "city": "Remscheid", "land": "Rhénanie-du-Nord-Westphalie", "lat": 51.1787, "lon": 7.1897 },
  { "prefix": "RT", "city": "Reutlingen", "land": "Bade-Wurtemberg", "lat": 48.4914, "lon": 9.2043 },
  { "prefix": "RU", "city": "Rudolstadt", "land": "Thuringe", "lat": 50.7192, "lon": 11.3429 },
  { "prefix": "RV", "city": "Ravensburg", "land": "Bade-Wurtemberg", "lat": 47.7821, "lon": 9.6105 },
  { "prefix": "RW", "city": "Rottweil", "land": "Bade-Wurtemberg", "lat": 48.1675, "lon": 8.6272 },
  { "prefix": "S", "city": "Stuttgart", "land": "Bade-Wurtemberg", "lat": 48.7758, "lon": 9.1829 },
  { "prefix": "SA", "city": "Sachsen-Anhalt", "land": "Saxe-Anhalt", "lat": 51.9501, "lon": 11.6924 },
  { "prefix": "SAD", "city": "Schwandorf", "land": "Bavière", "lat": 49.3277, "lon": 12.1093 },
  { "prefix": "SAL", "city": "Saarland", "land": "Sarre", "lat": 49.3964, "lon": 7.0222 },
  { "prefix": "SAR", "city": "Saarbrücken", "land": "Sarre", "lat": 49.2402, "lon": 6.9969 },
  { "prefix": "SB", "city": "Sarrebruck", "land": "Sarre", "lat": 49.2402, "lon": 6.9969 },
  { "prefix": "SC", "city": "Schwerin", "land": "Mecklembourg-Poméranie-Occidentale", "lat": 53.6355, "lon": 11.4018 },
  { "prefix": "SDL", "city": "Stendal", "land": "Saxe-Anhalt", "lat": 52.605, "lon": 11.8586 },
  { "prefix": "SE", "city": "Segeberg", "land": "Schleswig-Holstein", "lat": 53.9196, "lon": 10.3161 },
  { "prefix": "SFA", "city": "Soltau-Fallingbostel", "land": "Basse-Saxe", "lat": 52.8776, "lon": 9.7045 },
  { "prefix": "SG", "city": "Solingen", "land": "Rhénanie-du-Nord-Westphalie", "lat": 51.1652, "lon": 7.0671 },
  { "prefix": "SHA", "city": "Schwäbisch Hall", "land": "Bade-Wurtemberg", "lat": 49.1124, "lon": 9.7392 },
  { "prefix": "SHG", "city": "Schaumburg", "land": "Basse-Saxe", "lat": 52.2838, "lon": 9.0983 },
  { "prefix": "SHK", "city": "Saale-Holzland-Kreis", "land": "Thuringe", "lat": 50.9416, "lon": 11.7729 },
  { "prefix": "SHL", "city": "Suhl", "land": "Thuringe", "lat": 50.6092, "lon": 10.6944 },
  { "prefix": "SI", "city": "Siegen-Wittgenstein", "land": "Rhénanie-du-Nord-Westphalie", "lat": 50.8748, "lon": 8.0224 },
  { "prefix": "SIG", "city": "Sigmaringen", "land": "Bade-Wurtemberg", "lat": 48.0897, "lon": 9.2265 },
  { "prefix": "SIM", "city": "Rhein-Hunsrück-Kreis", "land": "Rhénanie-Palatinat", "lat": 50.1026, "lon": 7.4397 },
  { "prefix": "SK", "city": "Saalekreis", "land": "Saxe-Anhalt", "lat": 51.4421, "lon": 11.8331 },
  { "prefix": "SL", "city": "Saarlouis", "land": "Sarre", "lat": 49.3133, "lon": 6.7521 },
  { "prefix": "SLF", "city": "Saalfeld-Rudolstadt", "land": "Thuringe", "lat": 50.6477, "lon": 11.3662 },
  { "prefix": "SLS", "city": "Saarlouis", "land": "Sarre", "lat": 49.3133, "lon": 6.7521 },
  { "prefix": "SM", "city": "Schmalkalden-Meiningen", "land": "Thuringe", "lat": 50.7182, "lon": 10.4102 },
  { "prefix": "SN", "city": "Schwerin", "land": "Mecklembourg-Poméranie-Occidentale", "lat": 53.6355, "lon": 11.4018 },
  { "prefix": "SO", "city": "Soest", "land": "Rhénanie-du-Nord-Westphalie", "lat": 51.5756, "lon": 8.1062 },
  { "prefix": "SOK", "city": "Saale-Orla-Kreis", "land": "Thuringe", "lat": 50.5831, "lon": 11.7066 },
  { "prefix": "SP", "city": "Spire", "land": "Rhénanie-Palatinat", "lat": 49.3176, "lon": 8.4318 },
  { "prefix": "SPN", "city": "Spree-Neisse", "land": "Brandebourg", "lat": 51.7392, "lon": 14.4246 },
  { "prefix": "SR", "city": "Straubing", "land": "Bavière", "lat": 48.8817, "lon": 12.5737 },
  { "prefix": "ST", "city": "Steinfurt", "land": "Rhénanie-du-Nord-Westphalie", "lat": 52.1502, "lon": 7.4132 },
  { "prefix": "STA", "city": "Starnberg", "land": "Bavière", "lat": 48.0015, "lon": 11.3401 },
  { "prefix": "STD", "city": "Stade", "land": "Basse-Saxe", "lat": 53.5941, "lon": 9.4761 },
  { "prefix": "STL", "city": "Stollberg", "land": "Saxe", "lat": 50.7137, "lon": 12.7898 },
  { "prefix": "SU", "city": "Rhein-Sieg-Kreis", "land": "Rhénanie-du-Nord-Westphalie", "lat": 50.7764, "lon": 7.1773 },
  { "prefix": "SÜW", "city": "Südliche Weinstraße", "land": "Rhénanie-Palatinat", "lat": 49.1723, "lon": 8.0632 },
  { "prefix": "SW", "city": "Schweinfurt", "land": "Bavière", "lat": 50.043, "lon": 10.2365 },
  { "prefix": "SZ", "city": "Salzgitter", "land": "Basse-Saxe", "lat": 52.1571, "lon": 10.4154 },
  { "prefix": "TBB", "city": "Tauberbischofsheim", "land": "Bade-Wurtemberg", "lat": 49.622, "lon": 9.6607 },
  { "prefix": "TET", "city": "Teterow", "land": "Mecklembourg-Poméranie-Occidentale", "lat": 53.7741, "lon": 12.5721 },
  { "prefix": "TF", "city": "Teltow-Fläming", "land": "Brandebourg", "lat": 52.2247, "lon": 13.2364 },
  { "prefix": "TG", "city": "Thurgovie", "land": "Bade-Wurtemberg", "lat": 48.4456, "lon": 9.2812 },
  { "prefix": "THL", "city": "Thuringe", "land": "Thuringe", "lat": 51.0107, "lon": 10.8456 },
  { "prefix": "TIR", "city": "Tirschenreuth", "land": "Bavière", "lat": 49.8775, "lon": 12.3389 },
  { "prefix": "TO", "city": "Torgau-Oschatz", "land": "Saxe", "lat": 51.5601, "lon": 13.0055 },
  { "prefix": "TR", "city": "Trèves", "land": "Rhénanie-Palatinat", "lat": 49.7499, "lon": 6.6371 },
  { "prefix": "TS", "city": "Traunstein", "land": "Bavière", "lat": 47.8688, "lon": 12.6314 },
  { "prefix": "TÜ", "city": "Tübingen", "land": "Bade-Wurtemberg", "lat": 48.5216, "lon": 9.0576 },
  { "prefix": "UE", "city": "Uelzen", "land": "Basse-Saxe", "lat": 52.9662, "lon": 10.5617 },
  { "prefix": "Ulm", "city": "Ulm", "land": "Bade-Wurtemberg", "lat": 48.4011, "lon": 9.9876 },
  { "prefix": "UM", "city": "Uckermark", "land": "Brandebourg", "lat": 53.2406, "lon": 13.8293 },
  { "prefix": "UN", "city": "Unna", "land": "Rhénanie-du-Nord-Westphalie", "lat": 51.5371, "lon": 7.6897 },
  { "prefix": "V", "city": "Vogtlandkreis", "land": "Saxe", "lat": 50.4902, "lon": 12.3077 },
  { "prefix": "VER", "city": "Verden (Aller)", "land": "Basse-Saxe", "lat": 52.9276, "lon": 9.2358 },
  { "prefix": "VIE", "city": "Viersen", "land": "Rhénanie-du-Nord-Westphalie", "lat": 51.2548, "lon": 6.3935 },
  { "prefix": "VS", "city": "Villingen-Schwenningen", "land": "Bade-Wurtemberg", "lat": 48.0595, "lon": 8.4584 },
  { "prefix": "W", "city": "Wuppertal", "land": "Rhénanie-du-Nord-Westphalie", "lat": 51.2562, "lon": 7.1508 },
  { "prefix": "WA", "city": "Waldeck-Frankenberg", "land": "Hesse", "lat": 51.1191, "lon": 8.8143 },
  { "prefix": "WB", "city": "Wittenberg", "land": "Saxe-Anhalt", "lat": 51.8666, "lon": 12.6492 },
  { "prefix": "WES", "city": "Wesel", "land": "Rhénanie-du-Nord-Westphalie", "lat": 51.6646, "lon": 6.6204 },
  { "prefix": "WF", "city": "Wolfenbüttel", "land": "Basse-Saxe", "lat": 52.1645, "lon": 10.5368 },
  { "prefix": "WHV", "city": "Wilhelmshaven", "land": "Basse-Saxe", "lat": 53.5299, "lon": 8.1125 },
  { "prefix": "WI", "city": "Wiesbaden", "land": "Hesse", "lat": 50.0826, "lon": 8.2415 },
  { "prefix": "WIL", "city": "Wittlich", "land": "Rhénanie-Palatinat", "lat": 49.9844, "lon": 6.8912 },
  { "prefix": "WL", "city": "Harburg", "land": "Basse-Saxe", "lat": 53.4637, "lon": 9.9805 },
  { "prefix": "WM", "city": "Weilheim-Schongau", "land": "Bavière", "lat": 47.8393, "lon": 11.1512 },
  { "prefix": "WN", "city": "Rems-Murr-Kreis", "land": "Bade-Wurtemberg", "lat": 48.8323, "lon": 9.4328 },
  { "prefix": "WO", "city": "Worms", "land": "Rhénanie-Palatinat", "lat": 49.6327, "lon": 8.3595 },
  { "prefix": "WOB", "city": "Wolfsbourg", "land": "Basse-Saxe", "lat": 52.4227, "lon": 10.7865 },
  { "prefix": "WST", "city": "Ammerland", "land": "Basse-Saxe", "lat": 53.2412, "lon": 8.0158 },
  { "prefix": "WT", "city": "Waldshut", "land": "Bade-Wurtemberg", "lat": 47.6287, "lon": 8.2171 },
  { "prefix": "WTM", "city": "Wittmund", "land": "Basse-Saxe", "lat": 53.5763, "lon": 7.7877 },
  { "prefix": "WÜ", "city": "Wurtzbourg", "land": "Bavière", "lat": 49.7913, "lon": 9.9534 },
  { "prefix": "WUG", "city": "Weissenburg-Gunzenhausen", "land": "Bavière", "lat": 49.034, "lon": 10.9697 },
  { "prefix": "WUN", "city": "Wunsiedel", "land": "Bavière", "lat": 50.0377, "lon": 12.0026 },
  { "prefix": "WW", "city": "Westerwaldkreis", "land": "Rhénanie-Palatinat", "lat": 50.5514, "lon": 7.8237 },
  { "prefix": "Z", "city": "Zwickau", "land": "Saxe", "lat": 50.7108, "lon": 12.4731 },
  { "prefix": "ZE", "city": "Zeitz", "land": "Saxe-Anhalt", "lat": 51.0492, "lon": 12.1385 },
  { "prefix": "ZIG", "city": "Ziegenrück", "land": "Thuringe", "lat": 50.6089, "lon": 11.5927 },
  { "prefix": "ZW", "city": "Zweibrücken", "land": "Rhénanie-Palatinat", "lat": 49.2485, "lon": 7.3698 }
]


